[{"id":"94f2a45a-eefe-44a4-b4bb-33be9c260047","type":"schoolvakanties","canonical":"http://www.rijksoverheid.nl/onderwerpen/schoolvakanties/schoolvakanties-2019-2020","content":[{"title":" Overzicht schoolvakanties schooljaar 2019 - 2020 ","schoolyear":"\n              2019 - 2020 \n            ","vacations":[{"type":"\n                         Herfstvakantie \n                    ","compulsorydates":"false","regions":[{"region":"noord","startdate":"2019-10-19T22:00:00.000Z","enddate":"2019-10-27T21:59:00.000Z"},{"region":"midden","startdate":"2019-10-19T22:00:00.000Z","enddate":"2019-10-27T22:59:00.000Z"},{"region":"zuid","startdate":"2019-10-12T22:00:00.000Z","enddate":"2019-10-20T22:59:00.000Z"}]},{"type":"\n                         Kerstvakantie \n                    ","compulsorydates":"true","regions":[{"region":"heel Nederland","startdate":"2019-12-21T23:00:00.000Z","enddate":"2020-01-05T22:59:00.000Z"}]},{"type":"\n                         Voorjaarsvakantie \n                    ","compulsorydates":"false","regions":[{"region":"noord","startdate":"2020-02-15T23:00:00.000Z","enddate":"2020-02-23T22:59:00.000Z"},{"region":"midden","startdate":"2020-02-22T23:00:00.000Z","enddate":"2020-03-01T22:59:00.000Z"},{"region":"zuid","startdate":"2020-02-22T23:00:00.000Z","enddate":"2020-03-01T22:59:00.000Z"}]},{"type":"\n                         Meivakantie \n                    ","compulsorydates":"true","regions":[{"region":"heel Nederland","startdate":"2020-04-25T22:00:00.000Z","enddate":"2020-05-03T21:59:00.000Z"}]},{"type":"\n                         Zomervakantie \n                    ","compulsorydates":"true","regions":[{"region":"noord","startdate":"2020-07-04T22:00:00.000Z","enddate":"2020-08-16T21:59:00.000Z"},{"region":"midden","startdate":"2020-07-18T22:00:00.000Z","enddate":"2020-08-30T21:59:00.000Z"},{"region":"zuid","startdate":"2020-07-11T22:00:00.000Z","enddate":"2020-08-23T21:59:00.000Z"}]}]}],"notice":"\n        \n            &sup1; Voor deze vakantie geeft het ministerie van OCW alleen adviesdata. Scholen mogen hier dus van afwijken. Het ministerie adviseert om bij de school na te vragen op welke dagen deze gesloten is in verband met vakantie.\n         \n    ","authorities":["\n             Ministerie van Onderwijs, Cultuur en Wetenschap \n        "],"creators":["\n            Ministerie van Onderwijs, Cultuur en Wetenschap\n        "],"license":"CC0 1.0 Universal","rightsholders":["Ministerie van Algemene Zaken"],"language":"nl-NL","location":"Nederland","lastmodified":"2017-01-23T12:00:00.060Z"},{"id":"94f2a45a-eefe-44a4-b4bb-33be9c260047","type":"schoolvakanties","canonical":"http://www.rijksoverheid.nl/onderwerpen/schoolvakanties/schoolvakanties-2020-2021","content":[{"title":"\n            Overzicht schoolvakanties schooljaar 2020 - 2021 \n           ","schoolyear":"\n              2020 - 2021 \n            ","vacations":[{"type":"\n                         Herfstvakantie \n                    ","compulsorydates":"false","regions":[{"region":"noord","startdate":"2020-10-10T22:00:00.000Z","enddate":"2020-10-18T21:59:00.000Z"},{"region":"midden","startdate":"2020-10-17T22:00:00.000Z","enddate":"2020-10-25T22:59:00.000Z"},{"region":"zuid","startdate":"2020-10-17T22:00:00.000Z","enddate":"2020-10-25T22:59:00.000Z"}]},{"type":"\n                         Kerstvakantie \n                    ","compulsorydates":"true","regions":[{"region":"heel Nederland","startdate":"2020-12-19T23:00:00.000Z","enddate":"2021-01-03T22:59:00.000Z"}]},{"type":"\n                         Voorjaarsvakantie \n                    ","compulsorydates":"false","regions":[{"region":"noord","startdate":"2021-02-20T23:00:00.000Z","enddate":"2021-02-28T22:59:00.000Z"},{"region":"midden","startdate":"2021-02-20T23:00:00.000Z","enddate":"2021-02-28T22:59:00.000Z"},{"region":"zuid","startdate":"2021-02-13T23:00:00.000Z","enddate":"2021-02-21T22:59:00.000Z"}]},{"type":"\n                         Meivakantie \n                    ","compulsorydates":"true","regions":[{"region":"heel Nederland","startdate":"2021-05-01T22:00:00.000Z","enddate":"2021-05-09T21:59:00.000Z"}]},{"type":"\n                         Zomervakantie \n                    ","compulsorydates":"true","regions":[{"region":"noord","startdate":"2021-07-10T22:00:00.000Z","enddate":"2021-08-22T21:59:00.000Z"},{"region":"midden","startdate":"2021-07-17T22:00:00.000Z","enddate":"2021-08-29T21:59:00.000Z"},{"region":"zuid","startdate":"2021-07-24T22:00:00.000Z","enddate":"2021-09-05T21:59:00.000Z"}]}]}],"notice":"\n        \n            &sup1; Voor deze vakantie geeft het ministerie van OCW alleen adviesdata. Scholen mogen hier dus van afwijken. Het ministerie adviseert om bij de school na te vragen op welke dagen deze gesloten is in verband met vakantie.\n         \n    ","authorities":["\n             Ministerie van Onderwijs, Cultuur en Wetenschap \n        "],"creators":["\n            Ministerie van Onderwijs, Cultuur en Wetenschap\n        "],"license":"CC0 1.0 Universal","rightsholders":["Ministerie van Algemene Zaken"],"language":"nl-NL","location":"Nederland","lastmodified":"2013-07-25T06:58:41.060Z"},{"id":"94f2a45a-eefe-44a4-b4bb-33be9c260047","type":"schoolvakanties","canonical":"http://www.rijksoverheid.nl/onderwerpen/schoolvakanties/schoolvakanties-2021-2022","content":[{"title":"\n            Overzicht schoolvakanties schooljaar 2021-2022 \n           ","schoolyear":"\n              2021-2022 \n            ","vacations":[{"type":"\n                         Herfstvakantie \n                    ","compulsorydates":"false","regions":[{"region":"noord","startdate":"2021-10-16T22:00:00.000Z","enddate":"2021-10-24T21:59:00.000Z"},{"region":"midden","startdate":"2021-10-16T22:00:00.000Z","enddate":"2021-10-24T22:59:00.000Z"},{"region":"zuid","startdate":"2021-10-23T22:00:00.000Z","enddate":"2021-10-31T22:59:00.000Z"}]},{"type":"\n                         Kerstvakantie \n                    ","compulsorydates":"true","regions":[{"region":"heel Nederland","startdate":"2021-12-25T23:00:00.000Z","enddate":"2022-01-09T22:59:00.000Z"}]},{"type":"\n                         Voorjaarsvakantie \n                    ","compulsorydates":"false","regions":[{"region":"noord","startdate":"2022-02-19T23:00:00.000Z","enddate":"2022-02-27T22:59:00.000Z"},{"region":"midden","startdate":"2022-02-26T23:00:00.000Z","enddate":"2022-03-06T22:59:00.000Z"},{"region":"zuid","startdate":"2022-02-26T23:00:00.000Z","enddate":"2022-03-06T22:59:00.000Z"}]},{"type":"\n                         Meivakantie \n                    ","compulsorydates":"true","regions":[{"region":"heel Nederland","startdate":"2022-04-30T22:00:00.000Z","enddate":"2022-05-08T21:59:00.000Z"}]},{"type":"\n                         Zomervakantie \n                    ","compulsorydates":"true","regions":[{"region":"noord","startdate":"2022-07-16T22:00:00.000Z","enddate":"2022-08-28T21:59:00.000Z"},{"region":"midden","startdate":"2022-07-09T22:00:00.000Z","enddate":"2022-08-21T21:59:00.000Z"},{"region":"zuid","startdate":"2022-07-23T22:00:00.000Z","enddate":"2022-09-04T21:59:00.000Z"}]}]}],"notice":"\n        \n            &sup1; Voor deze vakantie geeft het ministerie van OCW alleen adviesdata. Scholen mogen hier dus van afwijken. Het ministerie adviseert om bij de school na te vragen op welke dagen deze gesloten is in verband met vakantie.\n         \n    ","authorities":["\n             Ministerie van Onderwijs, Cultuur en Wetenschap \n        "],"creators":["\n            Ministerie van Onderwijs, Cultuur en Wetenschap\n        "],"license":"CC0 1.0 Universal","rightsholders":["Ministerie van Algemene Zaken"],"language":"nl-NL","location":"Nederland","lastmodified":"2013-07-25T06:58:41.060Z"},{"id":"94f2a45a-eefe-44a4-b4bb-33be9c260047","type":"schoolvakanties","canonical":"https://www.rijksoverheid.nl/onderwerpen/schoolvakanties/overzicht-schoolvakanties-per-schooljaar/overzicht-schoolvakanties-2022-2023","content":[{"title":"\n            Overzicht schoolvakanties schooljaar 2022-2023 \n           ","schoolyear":"\n              2022-2023 \n            ","vacations":[{"type":"\n                         Herfstvakantie \n                    ","compulsorydates":"false","regions":[{"region":"noord","startdate":"2022-10-15T22:00:00.000Z","enddate":"2022-10-23T21:59:00.000Z"},{"region":"midden","startdate":"2022-10-22T22:00:00.000Z","enddate":"2022-10-30T22:59:00.000Z"},{"region":"zuid","startdate":"2022-10-22T22:00:00.000Z","enddate":"2022-10-30T22:59:00.000Z"}]},{"type":"\n                         Kerstvakantie \n                    ","compulsorydates":"true","regions":[{"region":"heel Nederland","startdate":"2022-12-24T23:00:00.000Z","enddate":"2023-01-08T22:59:00.000Z"}]},{"type":"\n                         Voorjaarsvakantie \n                    ","compulsorydates":"false","regions":[{"region":"noord","startdate":"2023-02-25T23:00:00.000Z","enddate":"2023-03-05T22:59:00.000Z"},{"region":"midden","startdate":"2023-02-25T23:00:00.000Z","enddate":"2023-03-05T22:59:00.000Z"},{"region":"zuid","startdate":"2023-02-18T23:00:00.000Z","enddate":"2023-02-26T22:59:00.000Z"}]},{"type":"\n                         Meivakantie \n                    ","compulsorydates":"true","regions":[{"region":"heel Nederland","startdate":"2023-04-29T22:00:00.000Z","enddate":"2023-05-07T21:59:00.000Z"}]},{"type":"\n                         Zomervakantie \n                    ","compulsorydates":"true","regions":[{"region":"noord","startdate":"2023-07-22T22:00:00.000Z","enddate":"2023-09-03T21:59:00.000Z"},{"region":"midden","startdate":"2023-07-08T22:00:00.000Z","enddate":"2023-08-20T21:59:00.000Z"},{"region":"zuid","startdate":"2023-07-15T22:00:00.000Z","enddate":"2023-08-27T21:59:00.000Z"}]}]}],"notice":"\n        \n            &sup1; Voor deze vakantie geeft het ministerie van OCW alleen adviesdata. Scholen mogen hier dus van afwijken. Het ministerie adviseert om bij de school na te vragen op welke dagen deze gesloten is in verband met vakantie.\n         \n    ","authorities":["\n             Ministerie van Onderwijs, Cultuur en Wetenschap \n        "],"creators":["\n            Ministerie van Onderwijs, Cultuur en Wetenschap\n        "],"license":"CC0 1.0 Universal","rightsholders":["Ministerie van Algemene Zaken"],"language":"nl-NL","location":"Nederland","lastmodified":"2019-12-13T06:58:41.060Z"},{"id":"94f2a45a-eefe-44a4-b4bb-33be9c260047","type":"schoolvakanties","canonical":"https://www.rijksoverheid.nl/onderwerpen/schoolvakanties/overzicht-schoolvakanties-per-schooljaar/overzicht-schoolvakanties-2023-2024","content":[{"title":"\n            Overzicht schoolvakanties schooljaar 2023-2024 \n           ","schoolyear":"\n              2023-2024 \n            ","vacations":[{"type":"\n                         Herfstvakantie \n                    ","compulsorydates":"false","regions":[{"region":"noord","startdate":"2023-10-21T22:00:00.000Z","enddate":"2023-10-29T21:59:00.000Z"},{"region":"midden","startdate":"2023-10-14T22:00:00.000Z","enddate":"2023-10-22T22:59:00.000Z"},{"region":"zuid","startdate":"2023-10-14T22:00:00.000Z","enddate":"2023-10-22T22:59:00.000Z"}]},{"type":"\n                         Kerstvakantie \n                    ","compulsorydates":"true","regions":[{"region":"heel Nederland","startdate":"2023-12-23T23:00:00.000Z","enddate":"2024-01-07T22:59:00.000Z"}]},{"type":"\n                         Voorjaarsvakantie \n                    ","compulsorydates":"false","regions":[{"region":"noord","startdate":"2024-02-17T23:00:00.000Z","enddate":"2024-02-25T22:59:00.000Z"},{"region":"midden","startdate":"2024-02-17T23:00:00.000Z","enddate":"2024-02-25T22:59:00.000Z"},{"region":"zuid","startdate":"2024-02-10T23:00:00.000Z","enddate":"2024-02-18T22:59:00.000Z"}]},{"type":"\n                         Meivakantie \n                    ","compulsorydates":"true","regions":[{"region":"heel Nederland","startdate":"2024-04-27T22:00:00.000Z","enddate":"2024-05-05T21:59:00.000Z"}]},{"type":"\n                         Zomervakantie \n                    ","compulsorydates":"true","regions":[{"region":"noord","startdate":"2024-07-20T22:00:00.000Z","enddate":"2024-09-01T21:59:00.000Z"},{"region":"midden","startdate":"2024-07-13T22:00:00.000Z","enddate":"2024-08-25T21:59:00.000Z"},{"region":"zuid","startdate":"2024-07-06T22:00:00.000Z","enddate":"2024-08-18T21:59:00.000Z"}]}]}],"notice":"\n        \n            &sup1; Voor deze vakantie geeft het ministerie van OCW alleen adviesdata. Scholen mogen hier dus van afwijken. Het ministerie adviseert om bij de school na te vragen op welke dagen deze gesloten is in verband met vakantie.\n         \n    ","authorities":["\n             Ministerie van Onderwijs, Cultuur en Wetenschap \n        "],"creators":["\n            Ministerie van Onderwijs, Cultuur en Wetenschap\n        "],"license":"CC0 1.0 Universal","rightsholders":["Ministerie van Algemene Zaken"],"language":"nl-NL","location":"Nederland","lastmodified":"2019-12-13T06:58:41.060Z"},{"id":"94f2a45a-eefe-44a4-b4bb-33be9c260047","type":"schoolvakanties","canonical":"https://www.rijksoverheid.nl/onderwerpen/schoolvakanties/overzicht-schoolvakanties-per-schooljaar/overzicht-schoolvakanties-2024-2025","content":[{"title":"\n            Overzicht schoolvakanties schooljaar 2024-2025 \n           ","schoolyear":"\n              2024-2025 \n            ","vacations":[{"type":"\n                         Herfstvakantie \n                    ","compulsorydates":"false","regions":[{"region":"noord","startdate":"2024-10-26T22:00:00.000Z","enddate":"2024-11-03T21:59:00.000Z"},{"region":"midden","startdate":"2024-10-26T22:00:00.000Z","enddate":"2024-11-03T22:59:00.000Z"},{"region":"zuid","startdate":"2024-10-19T22:00:00.000Z","enddate":"2024-10-27T22:59:00.000Z"}]},{"type":"\n                         Kerstvakantie \n                    ","compulsorydates":"true","regions":[{"region":"heel Nederland","startdate":"2024-12-21T23:00:00.000Z","enddate":"2025-01-05T22:59:00.000Z"}]},{"type":"\n                         Voorjaarsvakantie \n                    ","compulsorydates":"false","regions":[{"region":"noord","startdate":"2025-02-15T23:00:00.000Z","enddate":"2025-02-23T22:59:00.000Z"},{"region":"midden","startdate":"2025-02-22T23:00:00.000Z","enddate":"2025-03-02T22:59:00.000Z"},{"region":"zuid","startdate":"2025-02-22T23:00:00.000Z","enddate":"2025-03-03T22:59:00.000Z"}]},{"type":"\n                         Meivakantie \n                    ","compulsorydates":"true","regions":[{"region":"heel Nederland","startdate":"2025-04-26T22:00:00.000Z","enddate":"2025-05-04T21:59:00.000Z"}]},{"type":"\n                         Zomervakantie \n                    ","compulsorydates":"true","regions":[{"region":"noord","startdate":"2025-07-12T22:00:00.000Z","enddate":"2025-08-24T21:59:00.000Z"},{"region":"midden","startdate":"2025-07-19T22:00:00.000Z","enddate":"2025-08-31T21:59:00.000Z"},{"region":"zuid","startdate":"2025-07-05T22:00:00.000Z","enddate":"2025-08-17T21:59:00.000Z"}]}]}],"notice":"\n        \n            &sup1; Voor deze vakantie geeft het ministerie van OCW alleen adviesdata. Scholen mogen hier dus van afwijken. Het ministerie adviseert om bij de school na te vragen op welke dagen deze gesloten is in verband met vakantie.\n         \n    ","authorities":["\n             Ministerie van Onderwijs, Cultuur en Wetenschap \n        "],"creators":["\n            Ministerie van Onderwijs, Cultuur en Wetenschap\n        "],"license":"CC0 1.0 Universal","rightsholders":["Ministerie van Algemene Zaken"],"language":"nl-NL","location":"Nederland","lastmodified":"2019-12-13T06:58:41.060Z"},{"id":"94f2a45a-eefe-44a4-b4bb-33be9c260047","type":"schoolvakanties","canonical":"https://www.rijksoverheid.nl/onderwerpen/schoolvakanties/overzicht-schoolvakanties-per-schooljaar/overzicht-schoolvakanties-2025-2026","content":[{"title":"\n            Overzicht schoolvakanties schooljaar 2025-2026 \n           ","schoolyear":"\n              2025-2026 \n            ","vacations":[{"type":"\n                         Herfstvakantie \n                    ","compulsorydates":"false","regions":[{"region":"noord","startdate":"2025-10-18T22:00:00.000Z","enddate":"2025-10-26T21:59:00.000Z"},{"region":"midden","startdate":"2025-10-18T22:00:00.000Z","enddate":"2025-10-26T22:59:00.000Z"},{"region":"zuid","startdate":"2025-10-11T22:00:00.000Z","enddate":"2025-10-19T22:59:00.000Z"}]},{"type":"\n                         Kerstvakantie \n                    ","compulsorydates":"true","regions":[{"region":"heel Nederland","startdate":"2025-12-20T23:00:00.000Z","enddate":"2026-01-04T22:59:00.000Z"}]},{"type":"\n                         Voorjaarsvakantie \n                    ","compulsorydates":"false","regions":[{"region":"noord","startdate":"2026-02-21T23:00:00.000Z","enddate":"2026-03-01T22:59:00.000Z"},{"region":"midden","startdate":"2026-02-14T23:00:00.000Z","enddate":"2026-02-22T22:59:00.000Z"},{"region":"zuid","startdate":"2026-02-14T23:00:00.000Z","enddate":"2026-02-22T22:59:00.000Z"}]},{"type":"\n                         Meivakantie \n                    ","compulsorydates":"true","regions":[{"region":"heel Nederland","startdate":"2026-04-25T22:00:00.000Z","enddate":"2026-05-03T21:59:00.000Z"}]},{"type":"\n                         Zomervakantie \n                    ","compulsorydates":"true","regions":[{"region":"noord","startdate":"2026-07-04T22:00:00.000Z","enddate":"2026-08-16T21:59:00.000Z"},{"region":"midden","startdate":"2026-07-18T22:00:00.000Z","enddate":"2026-08-30T21:59:00.000Z"},{"region":"zuid","startdate":"2026-07-11T22:00:00.000Z","enddate":"2026-08-23T21:59:00.000Z"}]}]}],"notice":"\n        \n            &sup1; Voor deze vakantie geeft het ministerie van OCW alleen adviesdata. Scholen mogen hier dus van afwijken. Het ministerie adviseert om bij de school na te vragen op welke dagen deze gesloten is in verband met vakantie.\n         \n    ","authorities":["\n             Ministerie van Onderwijs, Cultuur en Wetenschap \n        "],"creators":["\n            Ministerie van Onderwijs, Cultuur en Wetenschap\n        "],"license":"CC0 1.0 Universal","rightsholders":["Ministerie van Algemene Zaken"],"language":"nl-NL","location":"Nederland","lastmodified":"2019-12-13T06:58:41.060Z"}]